{"businesses": [{"id": "G6Na_Txv79osDXIM-zDu7g", "alias": "barbers-point-new-york-7", "name": "Barber's Point", "image_url": "https://s3-media1.fl.yelpcdn.com/bphoto/2x4xri5P5VxyFM_0K_Lzdw/o.jpg", "is_closed": false, "url": "https://www.yelp.com/biz/barbers-point-new-york-7?adjust_creative=MKE0udIzZaF4OhiAjAhsLw&utm_campaign=yelp_api_v3&utm_medium=api_v3_business_search&utm_source=MKE0udIzZaF4OhiAjAhsLw", "review_count": 63, "categories": [{"alias": "barbers", "title": "Barbers"}], "rating": 5.0, "coordinates": {"latitude": 40.72421920000001, "longitude": -74.0034696}, "transactions": [], "price": "$$", "location": {"address1": "59 Thompson St", "address2": null, "address3": null, "city": "New York", "zip_code": "10012", "country": "US", "state": "NY", "display_address": ["59 Thompson St", "New York, NY 10012"]}, "phone": "+16464846698", "display_phone": "(646) 484-6698", "distance": 2226.266179410713}, {"id": "ZtTE3u4ER-uSrjH_DZf38Q", "alias": "12-pell-new-york", "name": "12 Pell", "image_url": "https://s3-media3.fl.yelpcdn.com/bphoto/1jwuSrGiL5iPyeisbT4e7g/o.jpg", "is_closed": false, "url": "https://www.yelp.com/biz/12-pell-new-york?adjust_creative=MKE0udIzZaF4OhiAjAhsLw&utm_campaign=yelp_api_v3&utm_medium=api_v3_business_search&utm_source=MKE0udIzZaF4OhiAjAhsLw", "review_count": 482, "categories": [{"alias": "barbers", "title": "Barbers"}, {"alias": "menshair", "title": "Men's Hair Salons"}], "rating": 5.0, "coordinates": {"latitude": 40.714951, "longitude": -73.9977261}, "transactions": [], "price": "$$", "location": {"address1": "12 Pell St", "address2": null, "address3": "", "city": "New York", "zip_code": "10013", "country": "US", "state": "NY", "display_address": ["12 Pell St", "New York, NY 10013"]}, "phone": "+12123658957", "display_phone": "(212) 365-8957", "distance": 1095.920613629231}, {"id": "KzRmCW_Fe7aW0qF3VjIOxg", "alias": "soho-nyc-barbers-new-york", "name": "Soho NYC Barbers", "image_url": "https://s3-media4.fl.yelpcdn.com/bphoto/TF8KNRNYxvOnmBLqfTP5Tg/o.jpg", "is_closed": false, "url": "https://www.yelp.com/biz/soho-nyc-barbers-new-york?adjust_creative=MKE0udIzZaF4OhiAjAhsLw&utm_campaign=yelp_api_v3&utm_medium=api_v3_business_search&utm_source=MKE0udIzZaF4OhiAjAhsLw", "review_count": 138, "categories": [{"alias": "barbers", "title": "Barbers"}], "rating": 5.0, "coordinates": {"latitude": 40.7207767983438, "longitude": -73.9971691018524}, "transactions": [], "price": "$", "location": {"address1": "396 Broome St", "address2": null, "address3": "", "city": "New York", "zip_code": "10013", "country": "US", "state": "NY", "display_address": ["396 Broome St", "New York, NY 10013"]}, "phone": "+12129666069", "display_phone": "(212) 966-6069", "distance": 1721.9766612788178}, {"id": "LtFzeI7D2XkAry6ObwIPzQ", "alias": "dazhong-barber-shop-manhattan-5", "name": "DaZhong Barber Shop", "image_url": "https://s3-media4.fl.yelpcdn.com/bphoto/w08x9cVTU_5RstPUywwB2g/o.jpg", "is_closed": false, "url": "https://www.yelp.com/biz/dazhong-barber-shop-manhattan-5?adjust_creative=MKE0udIzZaF4OhiAjAhsLw&utm_campaign=yelp_api_v3&utm_medium=api_v3_business_search&utm_source=MKE0udIzZaF4OhiAjAhsLw", "review_count": 96, "categories": [{"alias": "barbers", "title": "Barbers"}], "rating": 4.5, "coordinates": {"latitude": 40.7153242, "longitude": -73.9980929}, "transactions": [], "price": "$", "location": {"address1": "63 Bayard St", "address2": null, "address3": "", "city": "Manhattan", "zip_code": "10013", "country": "US", "state": "NY", "display_address": ["63 Bayard St", "Manhattan, NY 10013"]}, "phone": "+13476147098", "display_phone": "(347) 614-7098", "distance": 1144.2640180239578}, {"id": "UywFXTRiPkuJZTuoJDg4yw", "alias": "ace-of-cuts-barber-shop-new-york", "name": "Ace of Cuts Barber Shop", "image_url": "https://s3-media4.fl.yelpcdn.com/bphoto/JvP3alqrvkiH-1iQqVkdjQ/o.jpg", "is_closed": false, "url": "https://www.yelp.com/biz/ace-of-cuts-barber-shop-new-york?adjust_creative=MKE0udIzZaF4OhiAjAhsLw&utm_campaign=yelp_api_v3&utm_medium=api_v3_business_search&utm_source=MKE0udIzZaF4OhiAjAhsLw", "review_count": 493, "categories": [{"alias": "barbers", "title": "Barbers"}, {"alias": "menshair", "title": "Men's Hair Salons"}], "rating": 4.5, "coordinates": {"latitude": 40.725089619932, "longitude": -73.983141054002}, "transactions": [], "price": "$", "location": {"address1": "518 E 6th St", "address2": null, "address3": "", "city": "New York", "zip_code": "10009", "country": "US", "state": "NY", "display_address": ["518 E 6th St", "New York, NY 10009"]}, "phone": "+16467073507", "display_phone": "(646) 707-3507", "distance": 2378.029945802448}, {"id": "ln2FsIJJ7EK_EfA8e780wg", "alias": "on-the-mark-barbershop-new-york", "name": "On the Mark Barbershop", "image_url": "https://s3-media4.fl.yelpcdn.com/bphoto/hUSwZxCulmnHHwtsB_c_Aw/o.jpg", "is_closed": false, "url": "https://www.yelp.com/biz/on-the-mark-barbershop-new-york?adjust_creative=MKE0udIzZaF4OhiAjAhsLw&utm_campaign=yelp_api_v3&utm_medium=api_v3_business_search&utm_source=MKE0udIzZaF4OhiAjAhsLw", "review_count": 565, "categories": [{"alias": "barbers", "title": "Barbers"}], "rating": 4.5, "coordinates": {"latitude": 40.73069, "longitude": -73.98374}, "transactions": [], "price": "$", "location": {"address1": "350 E 13th St", "address2": null, "address3": "", "city": "New York", "zip_code": "10003", "country": "US", "state": "NY", "display_address": ["350 E 13th St", "New York, NY 10003"]}, "phone": "+12123004740", "display_phone": "(212) 300-4740", "distance": 2948.6633101684165}, {"id": "X2ZN4g0eUNB9v3WdskNWvw", "alias": "the-kinsman-barber-shop-new-york", "name": "The Kinsman Barber Shop", "image_url": "https://s3-media4.fl.yelpcdn.com/bphoto/8aVNSO1yKwHmBnx-pDFE7w/o.jpg", "is_closed": false, "url": "https://www.yelp.com/biz/the-kinsman-barber-shop-new-york?adjust_creative=MKE0udIzZaF4OhiAjAhsLw&utm_campaign=yelp_api_v3&utm_medium=api_v3_business_search&utm_source=MKE0udIzZaF4OhiAjAhsLw", "review_count": 141, "categories": [{"alias": "barbers", "title": "Barbers"}], "rating": 4.5, "coordinates": {"latitude": 40.7348751981047, "longitude": -73.9989576533729}, "transactions": [], "price": "$$", "location": {"address1": "103 W 10th St", "address2": "", "address3": "", "city": "New York", "zip_code": "10011", "country": "US", "state": "NY", "display_address": ["103 W 10th St", "New York, NY 10011"]}, "phone": "+12122422226", "display_phone": "(212) 242-2226", "distance": 3296.0251582240935}, {"id": "WLtgfv-9VZsYv5y1x4vMcQ", "alias": "east-6th-street-barber-shop-new-york", "name": "East 6th Street Barber Shop", "image_url": "https://s3-media2.fl.yelpcdn.com/bphoto/xpKddTA9D8msbxAiRScVjw/o.jpg", "is_closed": false, "url": "https://www.yelp.com/biz/east-6th-street-barber-shop-new-york?adjust_creative=MKE0udIzZaF4OhiAjAhsLw&utm_campaign=yelp_api_v3&utm_medium=api_v3_business_search&utm_source=MKE0udIzZaF4OhiAjAhsLw", "review_count": 181, "categories": [{"alias": "barbers", "title": "Barbers"}], "rating": 4.5, "coordinates": {"latitude": 40.727763, "longitude": -73.989992}, "transactions": [], "price": "$", "location": {"address1": "216 E 6th St", "address2": "", "address3": "", "city": "New York", "zip_code": "10003", "country": "US", "state": "NY", "display_address": ["216 E 6th St", "New York, NY 10003"]}, "phone": "+12122602504", "display_phone": "(212) 260-2504", "distance": 2507.9970592431555}, {"id": "Ic1z8ot6t7rJtaJD2VzgRw", "alias": "rafaels-barbershop-new-york-3", "name": "Rafaels Barbershop", "image_url": "https://s3-media2.fl.yelpcdn.com/bphoto/8mzzNZWxbpeoosnN_UCjYw/o.jpg", "is_closed": false, "url": "https://www.yelp.com/biz/rafaels-barbershop-new-york-3?adjust_creative=MKE0udIzZaF4OhiAjAhsLw&utm_campaign=yelp_api_v3&utm_medium=api_v3_business_search&utm_source=MKE0udIzZaF4OhiAjAhsLw", "review_count": 400, "categories": [{"alias": "barbers", "title": "Barbers"}], "rating": 4.5, "coordinates": {"latitude": 40.7282763, "longitude": -73.9853674}, "transactions": [], "price": "$", "location": {"address1": "350 E 9th St", "address2": "", "address3": "", "city": "New York", "zip_code": "10003", "country": "US", "state": "NY", "display_address": ["350 E 9th St", "New York, NY 10003"]}, "phone": "+12122538856", "display_phone": "(212) 253-8856", "distance": 2647.844763008872}, {"id": "LHQDC_9APBEWDjPW-upOwA", "alias": "barber-on-pearl-brooklyn", "name": "Barber on Pearl", "image_url": "https://s3-media3.fl.yelpcdn.com/bphoto/KEbQoazSJUQjhPZnRFZEqQ/o.jpg", "is_closed": false, "url": "https://www.yelp.com/biz/barber-on-pearl-brooklyn?adjust_creative=MKE0udIzZaF4OhiAjAhsLw&utm_campaign=yelp_api_v3&utm_medium=api_v3_business_search&utm_source=MKE0udIzZaF4OhiAjAhsLw", "review_count": 181, "categories": [{"alias": "barbers", "title": "Barbers"}], "rating": 4.5, "coordinates": {"latitude": 40.7030122, "longitude": -73.9872762}, "transactions": [], "price": "$", "location": {"address1": "57 Pearl St", "address2": "", "address3": "", "city": "Brooklyn", "zip_code": "11201", "country": "US", "state": "NY", "display_address": ["57 Pearl St", "Brooklyn, NY 11201"]}, "phone": "+17188553090", "display_phone": "(718) 855-3090", "distance": 650.4177837168791}, {"id": "T6485YLu9DLsU1qPPZTx-g", "alias": "cutting-edge-barbers-brooklyn", "name": "Cutting Edge Barbers", "image_url": "https://s3-media3.fl.yelpcdn.com/bphoto/Te8KnyfdAcN3YX23tUZC_Q/o.jpg", "is_closed": false, "url": "https://www.yelp.com/biz/cutting-edge-barbers-brooklyn?adjust_creative=MKE0udIzZaF4OhiAjAhsLw&utm_campaign=yelp_api_v3&utm_medium=api_v3_business_search&utm_source=MKE0udIzZaF4OhiAjAhsLw", "review_count": 51, "categories": [{"alias": "barbers", "title": "Barbers"}], "rating": 4.5, "coordinates": {"latitude": 40.6947822570801, "longitude": -73.9951171875}, "transactions": [], "price": "$", "location": {"address1": "110 Montague St", "address2": null, "address3": "", "city": "Brooklyn", "zip_code": "11201", "country": "US", "state": "NY", "display_address": ["110 Montague St", "Brooklyn, NY 11201"]}, "phone": "+13478449023", "display_phone": "(347) 844-9023", "distance": 1179.2262790486036}, {"id": "ssq3lcssYQiDkmUurJAOvQ", "alias": "the-village-cuts-new-york", "name": "The Village Cuts", "image_url": "https://s3-media3.fl.yelpcdn.com/bphoto/OnnNhgpfUrWebIrbAetLQQ/o.jpg", "is_closed": false, "url": "https://www.yelp.com/biz/the-village-cuts-new-york?adjust_creative=MKE0udIzZaF4OhiAjAhsLw&utm_campaign=yelp_api_v3&utm_medium=api_v3_business_search&utm_source=MKE0udIzZaF4OhiAjAhsLw", "review_count": 216, "categories": [{"alias": "barbers", "title": "Barbers"}], "rating": 4.5, "coordinates": {"latitude": 40.73247, "longitude": -74.00163}, "transactions": [], "price": "$", "location": {"address1": "179 West 4th St", "address2": "", "address3": "", "city": "New York", "zip_code": "10014", "country": "US", "state": "NY", "display_address": ["179 West 4th St", "New York, NY 10014"]}, "phone": "+12126756736", "display_phone": "(212) 675-6736", "distance": 3067.4883098066275}, {"id": "9X0gC2FIXti_O8WFRmmarQ", "alias": "thee-brooklyn-barber-brooklyn-7", "name": "Thee Brooklyn Barber", "image_url": "https://s3-media1.fl.yelpcdn.com/bphoto/5toJVaXtxG2u-qkXp1D0cw/o.jpg", "is_closed": false, "url": "https://www.yelp.com/biz/thee-brooklyn-barber-brooklyn-7?adjust_creative=MKE0udIzZaF4OhiAjAhsLw&utm_campaign=yelp_api_v3&utm_medium=api_v3_business_search&utm_source=MKE0udIzZaF4OhiAjAhsLw", "review_count": 38, "categories": [{"alias": "barbers", "title": "Barbers"}], "rating": 4.5, "coordinates": {"latitude": 40.71984, "longitude": -73.96027}, "transactions": [], "location": {"address1": "158 Wythe Ave", "address2": null, "address3": "", "city": "Brooklyn", "zip_code": "11249", "country": "US", "state": "NY", "display_address": ["158 Wythe Ave", "Brooklyn, NY 11249"]}, "phone": "+17183004025", "display_phone": "(718) 300-4025", "distance": 3282.660172420485}, {"id": "nhUodWb662uyVS1cWFH2bg", "alias": "east-village-barber-shop-manhattan", "name": "East Village Barber Shop", "image_url": "https://s3-media3.fl.yelpcdn.com/bphoto/dc9c1SeldFdwDNH532FIJw/o.jpg", "is_closed": false, "url": "https://www.yelp.com/biz/east-village-barber-shop-manhattan?adjust_creative=MKE0udIzZaF4OhiAjAhsLw&utm_campaign=yelp_api_v3&utm_medium=api_v3_business_search&utm_source=MKE0udIzZaF4OhiAjAhsLw", "review_count": 143, "categories": [{"alias": "barbers", "title": "Barbers"}], "rating": 4.5, "coordinates": {"latitude": 40.729444, "longitude": -73.985451}, "transactions": [], "price": "$", "location": {"address1": "223 East 10th St", "address2": null, "address3": "", "city": "Manhattan", "zip_code": "10003", "country": "US", "state": "NY", "display_address": ["223 East 10th St", "Manhattan, NY 10003"]}, "phone": "+12122038574", "display_phone": "(212) 203-8574", "distance": 2770.676911543128}, {"id": "9ogpHATJXoTJLpKpB1QP2g", "alias": "well-connected-new-york-2", "name": "Well Connected", "image_url": "https://s3-media2.fl.yelpcdn.com/bphoto/Xf03r5ZmCPVFXE1TsII7cA/o.jpg", "is_closed": false, "url": "https://www.yelp.com/biz/well-connected-new-york-2?adjust_creative=MKE0udIzZaF4OhiAjAhsLw&utm_campaign=yelp_api_v3&utm_medium=api_v3_business_search&utm_source=MKE0udIzZaF4OhiAjAhsLw", "review_count": 85, "categories": [{"alias": "barbers", "title": "Barbers"}], "rating": 4.5, "coordinates": {"latitude": 40.72069784196332, "longitude": -73.99000594370004}, "transactions": [], "price": "$$", "location": {"address1": "66 Rivington St", "address2": "", "address3": "", "city": "New York", "zip_code": "10002", "country": "US", "state": "NY", "display_address": ["66 Rivington St", "New York, NY 10002"]}, "phone": "+12127805780", "display_phone": "(212) 780-5780", "distance": 1734.1177903436794}, {"id": "Yqknta-qzN0RTDEb-0Yirg", "alias": "euro-barber-shop-new-york", "name": "Euro Barber Shop", "image_url": "https://s3-media4.fl.yelpcdn.com/bphoto/e_i8Pr-uunE08jNGfVT6hg/o.jpg", "is_closed": false, "url": "https://www.yelp.com/biz/euro-barber-shop-new-york?adjust_creative=MKE0udIzZaF4OhiAjAhsLw&utm_campaign=yelp_api_v3&utm_medium=api_v3_business_search&utm_source=MKE0udIzZaF4OhiAjAhsLw", "review_count": 158, "categories": [{"alias": "barbers", "title": "Barbers"}], "rating": 5.0, "coordinates": {"latitude": 40.74112, "longitude": -73.9791}, "transactions": [], "price": "$", "location": {"address1": "242 E 28th St", "address2": "", "address3": "", "city": "New York", "zip_code": "10016", "country": "US", "state": "NY", "display_address": ["242 E 28th St", "New York, NY 10016"]}, "phone": "+12125320177", "display_phone": "(212) 532-0177", "distance": 4165.190400877597}, {"id": "azwljAJbybf1zH6XJjnzrA", "alias": "big-apple-barbers-new-york", "name": "Big Apple Barbers", "image_url": "https://s3-media4.fl.yelpcdn.com/bphoto/arvSqLULiI2uNNvKGGsixA/o.jpg", "is_closed": false, "url": "https://www.yelp.com/biz/big-apple-barbers-new-york?adjust_creative=MKE0udIzZaF4OhiAjAhsLw&utm_campaign=yelp_api_v3&utm_medium=api_v3_business_search&utm_source=MKE0udIzZaF4OhiAjAhsLw", "review_count": 111, "categories": [{"alias": "barbers", "title": "Barbers"}], "rating": 4.5, "coordinates": {"latitude": 40.73064837082991, "longitude": -73.9816026}, "transactions": [], "price": "$", "location": {"address1": "422 E 14th St", "address2": "Manhattan", "address3": "", "city": "New York", "zip_code": "10009", "country": "US", "state": "NY", "display_address": ["422 E 14th St", "Manhattan", "New York, NY 10009"]}, "phone": "+12126514858", "display_phone": "(212) 651-4858", "distance": 2999.6513580142087}, {"id": "ni-EBtB6k0gaveflopzGaQ", "alias": "new-hong-kong-barber-shop-new-york-2", "name": "New Hong Kong Barber Shop", "image_url": "https://s3-media3.fl.yelpcdn.com/bphoto/Z-hyFb4zdsaoA4haQOyEqA/o.jpg", "is_closed": false, "url": "https://www.yelp.com/biz/new-hong-kong-barber-shop-new-york-2?adjust_creative=MKE0udIzZaF4OhiAjAhsLw&utm_campaign=yelp_api_v3&utm_medium=api_v3_business_search&utm_source=MKE0udIzZaF4OhiAjAhsLw", "review_count": 39, "categories": [{"alias": "barbers", "title": "Barbers"}], "rating": 4.5, "coordinates": {"latitude": 40.71467, "longitude": -73.99815}, "transactions": [], "price": "$", "location": {"address1": "19 Doyers St", "address2": "", "address3": "", "city": "New York", "zip_code": "10013", "country": "US", "state": "NY", "display_address": ["19 Doyers St", "New York, NY 10013"]}, "phone": "", "display_phone": "", "distance": 1087.0450255435737}, {"id": "ovFiMmPEpFGNSxVeVSO79A", "alias": "clinton-street-barber-shop-brooklyn", "name": "Clinton Street Barber Shop", "image_url": "https://s3-media1.fl.yelpcdn.com/bphoto/pQ8Jv5G7v7p_JAJRvRkmdA/o.jpg", "is_closed": false, "url": "https://www.yelp.com/biz/clinton-street-barber-shop-brooklyn?adjust_creative=MKE0udIzZaF4OhiAjAhsLw&utm_campaign=yelp_api_v3&utm_medium=api_v3_business_search&utm_source=MKE0udIzZaF4OhiAjAhsLw", "review_count": 152, "categories": [{"alias": "barbers", "title": "Barbers"}], "rating": 4.0, "coordinates": {"latitude": 40.6933908362841, "longitude": -73.9929823420606}, "transactions": [], "price": "$", "location": {"address1": "104 Clinton St", "address2": null, "address3": "", "city": "Brooklyn", "zip_code": "11201", "country": "US", "state": "NY", "display_address": ["104 Clinton St", "Brooklyn, NY 11201"]}, "phone": "+17187971247", "display_phone": "(718) 797-1247", "distance": 1344.8931376732971}, {"id": "iPfzMNBgZEts9Hf6JyM4Jg", "alias": "park-ave-barbershop-new-york", "name": "Park Ave Barbershop", "image_url": "https://s3-media1.fl.yelpcdn.com/bphoto/UB7PV7vjxL-hA8PuiZdSHw/o.jpg", "is_closed": false, "url": "https://www.yelp.com/biz/park-ave-barbershop-new-york?adjust_creative=MKE0udIzZaF4OhiAjAhsLw&utm_campaign=yelp_api_v3&utm_medium=api_v3_business_search&utm_source=MKE0udIzZaF4OhiAjAhsLw", "review_count": 161, "categories": [{"alias": "barbers", "title": "Barbers"}], "rating": 4.5, "coordinates": {"latitude": 40.741086, "longitude": -73.985333}, "transactions": [], "price": "$", "location": {"address1": "333 Park Ave S", "address2": null, "address3": "", "city": "New York", "zip_code": "10010", "country": "US", "state": "NY", "display_address": ["333 Park Ave S", "New York, NY 10010"]}, "phone": "+12125055383", "display_phone": "(212) 505-5383", "distance": 4036.8412391510096}], "total": 3100, "region": {"center": {"longitude": -73.99429321289062, "latitude": 40.70544486444615}}}